[
  {
    "name": "臺北市立士林運動中心",
    "address": "臺北市士林區士商路1號",
    "capacity": 6,
    "longitude": 121.5215,
    "latitude": 25.0893
  },
  {
    "name": "臺北市立大同運動中心",
    "address": "臺北市大同區大龍街51號",
    "capacity": 5,
    "longitude": 121.5163,
    "latitude": 25.0652
  },
  {
    "name": "臺北市立大安運動中心",
    "address": "臺北市大安區辛亥路3段55號",
    "capacity": 7,
    "longitude": 121.5457,
    "latitude": 25.0207
  },
  {
    "name": "臺北市立中山運動中心",
    "address": "臺北市中山區中山北路二段44巷2號",
    "capacity": 6,
    "longitude": 121.5213,
    "latitude": 25.0548
  },
  {
    "name": "臺北市立中正運動中心",
    "address": "臺北市中正區信義路一段一號",
    "capacity": 6,
    "longitude": 121.5194,
    "latitude": 25.0384
  },
  {
    "name": "臺北市立內湖運動中心",
    "address": "臺北市內湖區洲子街12號",
    "capacity": 4,
    "longitude": 121.5747,
    "latitude": 25.0781
  },
  {
    "name": "臺北市立文山運動中心",
    "address": "臺北市文山區興隆路3段222號",
    "capacity": 7,
    "longitude": 121.5594,
    "latitude": 24.997
  },
  {
    "name": "臺北市立北投運動中心",
    "address": "臺北市北投區石牌路一段39巷100號",
    "capacity": 3,
    "longitude": 121.5098,
    "latitude": 25.1165
  },
  {
    "name": "臺北市立松山運動中心",
    "address": "臺北市松山區敦化北路一號",
    "capacity": 3,
    "longitude": 121.5503,
    "latitude": 25.0485
  },
  {
    "name": "臺北市立信義運動中心",
    "address": "臺北市信義區松勤路100號",
    "capacity": 5,
    "longitude": 121.5667,
    "latitude": 25.0316
  },
  {
    "name": "臺北市立南港運動中心",
    "address": "臺北市南港區玉成街69號",
    "capacity": 8,
    "longitude": 121.5818,
    "latitude": 25.0487
  },
  {
    "name": "臺北市立萬華運動中心",
    "address": "臺北市萬華區西寧南路6之1號",
    "capacity": 6,
    "longitude": 121.5066,
    "latitude": 25.0474
  },
  {
    "name": "臺北市立圖書館力行分館",
    "address": "臺北市文山區一壽街22號5~8樓",
    "capacity": 5,
    "longitude": 121.5563,
    "latitude": 24.9796
  },
  {
    "name": "臺北市立圖書館三民分館",
    "address": "臺北市松山區民生東路五段163之1號5、6樓",
    "capacity": 3,
    "longitude": 121.5628,
    "latitude": 25.0592
  },
  {
    "name": "臺北市立圖書館三興分館",
    "address": "臺北市信義區吳興街156巷6號4~5樓",
    "capacity": 2,
    "longitude": 121.5611,
    "latitude": 25.029
  },
  {
    "name": "臺北市立圖書館士林分館",
    "address": "臺北市士林區基河路363號2樓",
    "capacity": 2,
    "longitude": 121.5182,
    "latitude": 25.0958
  },
  {
    "name": "臺北市立圖書館大同分館",
    "address": "臺北市大同區重慶北路三段318號",
    "capacity": 2,
    "longitude": 121.5135,
    "latitude": 25.0743
  },
  {
    "name": "臺北市立圖書館大安分館",
    "address": "臺北市大安區辛亥路三段223號4樓",
    "capacity": 3,
    "longitude": 121.5508,
    "latitude": 25.016
  },
  {
    "name": "臺北市立圖書館大直分館",
    "address": "臺北市中山區大直街25號3樓",
    "capacity": 3,
    "longitude": 121.5467,
    "latitude": 25.0818
  },
  {
    "name": "臺北市立圖書館中山分館",
    "address": "臺北市中山區松江路367號8樓",
    "capacity": 2,
    "longitude": 121.5335,
    "latitude": 25.0643
  },
  {
    "name": "臺北市立圖書館中崙分館",
    "address": "臺北市松山區長安東路2段229號7~10樓",
    "capacity": 3,
    "longitude": 121.5458,
    "latitude": 25.0484
  },
  {
    "name": "臺北市立圖書館內湖分館",
    "address": "臺北市內湖區民權東路六段99號6樓",
    "capacity": 1,
    "longitude": 121.589,
    "latitude": 25.0692
  },
  {
    "name": "臺北市立圖書館六合分館",
    "address": "臺北市信義區松仁路240巷19號3~5樓",
    "capacity": 5,
    "longitude": 121.5688,
    "latitude": 25.0243
  },
  {
    "name": "臺北市立圖書館天母分館",
    "address": "臺北市士林區中山北路七段154巷6號3樓",
    "capacity": 2,
    "longitude": 121.533,
    "latitude": 25.1236
  },
  {
    "name": "臺北市立圖書館文山分館",
    "address": "臺北市文山區興隆路二段160號7-9樓",
    "capacity": 3,
    "longitude": 121.5514,
    "latitude": 25.0015
  },
  {
    "name": "臺北市立圖書館木柵分館",
    "address": "臺北市文山區保儀路一段13巷3號3樓",
    "capacity": 2,
    "longitude": 121.5691,
    "latitude": 24.9885
  },
  {
    "name": "臺北市立圖書館北投分館",
    "address": "臺北市北投區光明路251號",
    "capacity": 3,
    "longitude": 121.5063,
    "latitude": 25.1365
  },
  {
    "name": "臺北市立圖書館古亭分館",
    "address": "臺北市中正區汀州路二段265號",
    "capacity": 3,
    "longitude": 121.5238,
    "latitude": 25.0226
  },
  {
    "name": "臺北市立圖書館民生分館",
    "address": "臺北市松山區敦化北路199巷5號4樓",
    "capacity": 3,
    "longitude": 121.5515,
    "latitude": 25.0571
  },
  {
    "name": "臺北市立圖書館永明閱覽室",
    "address": "臺北市北投區石牌路二段115號7、8樓",
    "capacity": 2,
    "longitude": 121.5175,
    "latitude": 25.1183
  },
  {
    "name": "臺北市立圖書館永建分館",
    "address": "臺北市文山區木柵路一段177號4樓",
    "capacity": 2,
    "longitude": 121.5509,
    "latitude": 24.9877
  },
  {
    "name": "臺北市立圖書館永春分館",
    "address": "臺北市信義區松山路294號3、4樓",
    "capacity": 3,
    "longitude": 121.5776,
    "latitude": 25.043
  },
  {
    "name": "臺北市立圖書館石牌分館",
    "address": "臺北市北投區明德路208巷5號3-10樓",
    "capacity": 8,
    "longitude": 121.5227,
    "latitude": 25.113
  },
  {
    "name": "臺北市立圖書館吉利分館",
    "address": "臺北市北投區立農街一段366號",
    "capacity": 3,
    "longitude": 121.5083,
    "latitude": 25.1193
  },
  {
    "name": "臺北市立圖書館安康民眾閱覽室",
    "address": "臺北市文山區興隆路4段105巷1號4樓",
    "capacity": 1,
    "longitude": 121.5607,
    "latitude": 24.9878
  },
  {
    "name": "臺北市立圖書館成功民眾閱覽室",
    "address": "臺北市大安區和平東路二段311巷29號4樓",
    "capacity": 1,
    "longitude": 121.5452,
    "latitude": 25.0254
  },
  {
    "name": "臺北市立圖書館西中分館",
    "address": "臺北市內湖區內湖路1段285巷66號1-2樓",
    "capacity": 2,
    "longitude": 121.5666,
    "latitude": 25.0847
  },
  {
    "name": "臺北市立圖書館西湖分館",
    "address": "臺北市內湖區內湖路一段594號",
    "capacity": 4,
    "longitude": 121.5772,
    "latitude": 25.0786
  },
  {
    "name": "臺北市立圖書館西園分館",
    "address": "臺北市萬華區興寧街6號",
    "capacity": 5,
    "longitude": 121.5017,
    "latitude": 25.0321
  },
  {
    "name": "臺北市立圖書館秀山民眾閱覽室",
    "address": "臺北市北投區中和街534號5至9樓",
    "capacity": 2,
    "longitude": 121.4931,
    "latitude": 25.1456
  },
  {
    "name": "臺北市立圖書館延平分館",
    "address": "臺北市大同區保安街47號",
    "capacity": 6,
    "longitude": 121.512,
    "latitude": 25.0591
  },
  {
    "name": "臺北市立圖書館延吉民眾閱覽室",
    "address": "臺北市大安區延吉街236巷17號3~4F",
    "capacity": 2,
    "longitude": 121.555,
    "latitude": 25.0364
  },
  {
    "name": "臺北市立圖書館東湖分館",
    "address": "臺北市內湖區五分街6號",
    "capacity": 1,
    "longitude": 121.6126,
    "latitude": 25.0674
  },
  {
    "name": "臺北市立圖書館東園分館",
    "address": "臺北市萬華區東園街199號",
    "capacity": 4,
    "longitude": 121.4981,
    "latitude": 25.0226
  },
  {
    "name": "臺北市立圖書館松山分館",
    "address": "臺北市松山區八德路四段688號6、7、8樓",
    "capacity": 4,
    "longitude": 121.5768,
    "latitude": 25.0498
  },
  {
    "name": "臺北市立圖書館長安分館",
    "address": "臺北市中山區長安西路3號4樓",
    "capacity": 1,
    "longitude": 121.5209,
    "latitude": 25.0502
  },
  {
    "name": "臺北市立圖書館南港分館",
    "address": "臺北市南港區南港路一段350號",
    "capacity": 2,
    "longitude": 121.608,
    "latitude": 25.0549
  },
  {
    "name": "臺北市立圖書館城中分館",
    "address": "臺北市中正區濟南路二段46號3樓",
    "capacity": 2,
    "longitude": 121.5309,
    "latitude": 25.0402
  },
  {
    "name": "臺北市立圖書館建成分館",
    "address": "臺北市大同區民生西路198號4樓",
    "capacity": 1,
    "longitude": 121.5163,
    "latitude": 25.0569
  },
  {
    "name": "臺北市立圖書館恆安民眾閱覽室",
    "address": "臺北市中山區民權東路一段71巷19號",
    "capacity": 2,
    "longitude": 121.5271,
    "latitude": 25.0633
  },
  {
    "name": "臺北市立圖書館柳鄉民眾閱覽室",
    "address": "臺北市萬華區環河南路二段102號4樓",
    "capacity": 1,
    "longitude": 121.4953,
    "latitude": 25.0369
  },
  {
    "name": "臺北市立圖書館啟明分館",
    "address": "臺北市松山區敦化北路155巷76號",
    "capacity": 4,
    "longitude": 121.5514,
    "latitude": 25.0545
  },
  {
    "name": "臺北市立圖書館清江分館",
    "address": "臺北市北投區公館路198號3樓",
    "capacity": 2,
    "longitude": 121.5069,
    "latitude": 25.1277
  },
  {
    "name": "臺北市立圖書館景美分館",
    "address": "臺北市文山區羅斯福路五段176巷50號",
    "capacity": 3,
    "longitude": 121.5363,
    "latitude": 25.0036
  },
  {
    "name": "臺北市立圖書館景新分館",
    "address": "臺北市文山區景後街151號5號10樓",
    "capacity": 7,
    "longitude": 121.5419,
    "latitude": 24.9899
  },
  {
    "name": "臺北市立圖書館萬芳民眾閱覽室",
    "address": "臺北市文山區萬美街1段25號",
    "capacity": 1,
    "longitude": 121.5691,
    "latitude": 25.0022
  },
  {
    "name": "臺北市立圖書館萬華分館",
    "address": "臺北市東園街19號5~7樓",
    "capacity": 3,
    "longitude": 121.4957,
    "latitude": 25.0277
  },
  {
    "name": "臺北市立圖書館萬興分館",
    "address": "臺北市文山區萬壽路27號4樓",
    "capacity": 4,
    "longitude": 121.5765,
    "latitude": 24.9886
  },
  {
    "name": "臺北市立圖書館葫蘆堵分館",
    "address": "臺北市士林區延平北路5段136巷1號",
    "capacity": 5,
    "longitude": 121.5107,
    "latitude": 25.0823
  },
  {
    "name": "臺北市立圖書館道藩分館",
    "address": "臺北市大安區辛亥路三段11號3樓",
    "capacity": 1,
    "longitude": 121.544,
    "latitude": 25.0215
  },
  {
    "name": "臺北市立圖書館稻香分館",
    "address": "臺北市北投區稻香路81號3、4樓",
    "capacity": 3,
    "longitude": 121.4894,
    "latitude": 25.141
  },
  {
    "name": "臺北市立圖書館龍山分館",
    "address": "臺北市萬華區桂林路65巷6號",
    "capacity": 2,
    "longitude": 121.5023,
    "latitude": 25.0385
  },
  {
    "name": "臺北市立圖書館龍安民眾閱覽室",
    "address": "臺北市大安區永康街60號3樓",
    "capacity": 2,
    "longitude": 121.5294,
    "latitude": 25.0285
  },
  {
    "name": "臺北市立圖書館龍華民眾閱覽室",
    "address": "臺北市南港區東新街63巷8號",
    "capacity": 2,
    "longitude": 121.587,
    "latitude": 25.0475
  },
  {
    "name": "臺北市立圖書館總館",
    "address": "臺北市大安區建國南路二段125號",
    "capacity": 21,
    "longitude": 121.5383,
    "latitude": 25.0291
  },
  {
    "name": "臺北市立圖書館舊莊分館",
    "address": "臺北市南港區舊莊街1段91巷11號2樓",
    "capacity": 4,
    "longitude": 121.6194,
    "latitude": 25.0413
  },
  {
    "name": "臺北市立圖書館蘭州民眾閱覽室",
    "address": "臺北市大同區昌吉街57號4樓",
    "capacity": 1,
    "longitude": 121.5151,
    "latitude": 25.0662
  },
  {
    "name": "臺北市立聯合醫院中興院區",
    "address": "臺北市大同區鄭州路145號",
    "capacity": 48,
    "longitude": 121.5094,
    "latitude": 25.0511
  },
  {
    "name": "臺北市立聯合醫院仁愛院區",
    "address": "臺北市大安區仁愛路4段10號",
    "capacity": 55,
    "longitude": 121.5452,
    "latitude": 25.0372
  },
  {
    "name": "臺北市立聯合醫院和平院區",
    "address": "臺北市中正區中華路2段33號",
    "capacity": 32,
    "longitude": 121.5068,
    "latitude": 25.0355
  },
  {
    "name": "臺北市立聯合醫院和平婦幼院區",
    "address": "臺北市中正區福州街12號",
    "capacity": 18,
    "longitude": 121.5192,
    "latitude": 25.029
  },
  {
    "name": "臺北市立聯合醫院忠孝院區",
    "address": "臺北市南港區同德路87號",
    "capacity": 35,
    "longitude": 121.5861,
    "latitude": 25.0465
  },
  {
    "name": "臺北市立聯合醫院松德院區",
    "address": "臺北市信義區松德路309號",
    "capacity": 40,
    "longitude": 121.5744,
    "latitude": 25.0296
  },
  {
    "name": "臺北市立聯合醫院林森院區",
    "address": "臺北市中山區林森北路530號",
    "capacity": 8,
    "longitude": 121.5254,
    "latitude": 25.0634
  },
  {
    "name": "臺北市立聯合醫院陽明院區",
    "address": "臺北市士林區雨聲街105號",
    "capacity": 47,
    "longitude": 121.5321,
    "latitude": 25.1052
  },
  {
    "name": "臺北市立聯合醫院林森中醫昆明院區",
    "address": "臺北市萬華區昆明街100號",
    "capacity": 13,
    "longitude": 121.5047,
    "latitude": 25.0443
  },
  {
    "name": "士林區公所",
    "address": "臺北市士林區中正路439號",
    "capacity": 7,
    "longitude": 121.5195,
    "latitude": 25.0927
  },
  {
    "name": "士林區戶政事務所",
    "address": "臺北市士林區中正路439號",
    "capacity": 4,
    "longitude": 121.5196,
    "latitude": 25.0926
  },
  {
    "name": "士林地政事務所",
    "address": "臺北市士林區中正路439號",
    "capacity": 3,
    "longitude": 121.5196,
    "latitude": 25.0927
  },
  {
    "name": "大同區公所",
    "address": "臺北市大同區昌吉街57號",
    "capacity": 3,
    "longitude": 121.5152,
    "latitude": 25.0661
  },
  {
    "name": "大同區戶政事務所",
    "address": "臺北市大同區昌吉街57號",
    "capacity": 1,
    "longitude": 121.5151,
    "latitude": 25.066
  },
  {
    "name": "大安地政事務所",
    "address": "臺北市大安區信義路四段335巷6號",
    "capacity": 5,
    "longitude": 121.5564,
    "latitude": 25.0338
  },
  {
    "name": "大安區公所",
    "address": "臺北市大安區新生南路二段86號",
    "capacity": 4,
    "longitude": 121.5345,
    "latitude": 25.0264
  },
  {
    "name": "大安區戶政事務所",
    "address": "臺北市大安區新生南路二段86號",
    "capacity": 2,
    "longitude": 121.5345,
    "latitude": 25.0264
  },
  {
    "name": "中山區公所",
    "address": "臺北市中山區松江路367號",
    "capacity": 3,
    "longitude": 121.5335,
    "latitude": 25.0642
  },
  {
    "name": "中山區戶政事務所",
    "address": "臺北市中山區松江路367號",
    "capacity": 1,
    "longitude": 121.5336,
    "latitude": 25.0644
  },
  {
    "name": "中山區地政事務所",
    "address": "臺北市中山區松江路357巷1號",
    "capacity": 7,
    "longitude": 121.5341,
    "latitude": 25.0636
  },
  {
    "name": "中正區公所",
    "address": "臺北市中正區忠孝東路一段108號8樓",
    "capacity": 4,
    "longitude": 121.5247,
    "latitude": 25.0443
  },
  {
    "name": "內湖區公所",
    "address": "臺北市內湖區民權東路6段99號",
    "capacity": 4,
    "longitude": 121.5889,
    "latitude": 25.0692
  },
  {
    "name": "內湖區戶政事務所",
    "address": "臺北市內湖區民權東路六段99號",
    "capacity": 1,
    "longitude": 121.589,
    "latitude": 25.0693
  },
  {
    "name": "文山區公所",
    "address": "臺北市文山區木柵路三段220號",
    "capacity": 5,
    "longitude": 121.5701,
    "latitude": 24.9896
  },
  {
    "name": "文山區戶政事務所",
    "address": "臺北市文山區木柵路三段220號",
    "capacity": 3,
    "longitude": 121.57,
    "latitude": 24.9896
  },
  {
    "name": "文山區戶政事務所(景美辦事處)",
    "address": "臺北市文山區興隆路二段160號",
    "capacity": 1,
    "longitude": 121.5514,
    "latitude": 25.0015
  },
  {
    "name": "北投區戶政事務所",
    "address": "臺北市北投區新市街30號",
    "capacity": 2,
    "longitude": 121.5032,
    "latitude": 25.132
  },
  {
    "name": "古亭地政事務所",
    "address": "臺北市文山區萬隆街47之12號",
    "capacity": 5,
    "longitude": 121.5361,
    "latitude": 25.0006
  },
  {
    "name": "松山區公所",
    "address": "臺北市松山區八德路四段692號",
    "capacity": 4,
    "longitude": 121.5772,
    "latitude": 25.0498
  },
  {
    "name": "松山區戶政事務所",
    "address": "臺北市松山區八德路四段692號",
    "capacity": 2,
    "longitude": 121.5772,
    "latitude": 25.0499
  },
  {
    "name": "松山地政事務所",
    "address": "臺北市信義區莊敬路391巷11弄2號",
    "capacity": 4,
    "longitude": 121.5661,
    "latitude": 25.0288
  },
  {
    "name": "信義區公所",
    "address": "臺北市信義區信義路五段15號",
    "capacity": 7,
    "longitude": 121.5668,
    "latitude": 25.0331
  },
  {
    "name": "信義區戶政事務所",
    "address": "臺北市信義區信義路五段15號",
    "capacity": 2,
    "longitude": 121.5668,
    "latitude": 25.0333
  },
  {
    "name": "南港區公所",
    "address": "臺北市南港區南港路一段360號",
    "capacity": 5,
    "longitude": 121.6066,
    "latitude": 25.0547
  },
  {
    "name": "南港區戶政事務所",
    "address": "臺北市南港區南港路一段1段號360號4樓",
    "capacity": 1,
    "longitude": 121.6067,
    "latitude": 25.0545
  },
  {
    "name": "建成地政事務所",
    "address": "臺北市萬華區和平西路三段120號",
    "capacity": 4,
    "longitude": 121.4998,
    "latitude": 25.035
  },
  {
    "name": "萬華區公所",
    "address": "臺北市萬華區和平西路三段120號",
    "capacity": 3,
    "longitude": 121.4997,
    "latitude": 25.0348
  },
  {
    "name": "萬華區戶政事務所",
    "address": "臺北市萬華區和平西路三段120號",
    "capacity": 4,
    "longitude": 121.4998,
    "latitude": 25.035
  },
  {
    "name": "臺北市政府",
    "address": "臺北市信義區市府路1號",
    "capacity": 94,
    "longitude": 121.5644,
    "latitude": 25.0375
  },
  {
    "name": "市府轉運站",
    "address": "臺北市信義區忠孝東路5段6號",
    "capacity": 2,
    "longitude": 121.5648,
    "latitude": 25.0405
  },
  {
    "name": "交通部臺灣鐵路管理局-松山火車站",
    "address": "臺北市松山區松山路11號",
    "capacity": 1,
    "longitude": 121.5782,
    "latitude": 25.0492
  },
  {
    "name": "交通部臺灣鐵路管理局-南港火車站",
    "address": "臺北市南港區南港路一段313號",
    "capacity": 6,
    "longitude": 121.6069,
    "latitude": 25.053
  },
  {
    "name": "交通部臺灣鐵路管理局-萬華火車站",
    "address": "臺北市萬華區康定路382號",
    "capacity": 8,
    "longitude": 121.4998,
    "latitude": 25.0332
  },
  {
    "name": "交通部臺灣鐵路管理局-臺北火車站",
    "address": "臺北市中正區北平西路3號",
    "capacity": 11,
    "longitude": 121.5169,
    "latitude": 25.0477
  },
  {
    "name": "臺北松山機場",
    "address": "臺北市松山區敦化北路340號之9",
    "capacity": 36,
    "longitude": 121.5526,
    "latitude": 25.0675
  },
  {
    "name": "臺北轉運站",
    "address": "臺北市中山區市民大道1段209號14樓",
    "capacity": 4,
    "longitude": 121.5187,
    "latitude": 25.0488
  },
  {
    "name": "臺北市兒童新樂園",
    "address": "臺北市士林區承德路5段55號",
    "capacity": 21,
    "longitude": 121.5149,
    "latitude": 25.0972
  },
  {
    "name": "臺北市立天文科學教育館",
    "address": "臺北市士林區基河路363號",
    "capacity": 8,
    "longitude": 121.5183,
    "latitude": 25.0958
  },
  {
    "name": "臺北市天母棒球場",
    "address": "臺北市士林區忠誠路2段77號",
    "capacity": 12,
    "longitude": 121.5329,
    "latitude": 25.1134
  },
  {
    "name": "國立臺灣科學教育館",
    "address": "臺北市士林區士商路189號",
    "capacity": 22,
    "longitude": 121.5164,
    "latitude": 25.0962
  },
  {
    "name": "國立故宮博物院",
    "address": "臺北市士林區至善路二段221號",
    "capacity": 5,
    "longitude": 121.5484,
    "latitude": 25.1023
  },
  {
    "name": "客家文化會館",
    "address": "臺北市信義路三段157巷11號",
    "capacity": 4,
    "longitude": 121.543,
    "latitude": 25.0345
  },
  {
    "name": "臺北花博夢想館",
    "address": "臺北市中山區濱江街12號",
    "capacity": 1,
    "longitude": 121.5308,
    "latitude": 25.0711
  },
  {
    "name": "臺北花博爭艷館",
    "address": "臺北市中山區玉門街1號",
    "capacity": 3,
    "longitude": 121.5207,
    "latitude": 25.0696
  },
  {
    "name": "臺北市立美術館",
    "address": "臺北市中山北路三段181號",
    "capacity": 8,
    "longitude": 121.5248,
    "latitude": 25.0724
  },
  {
    "name": "臺北植物園",
    "address": "臺北市中正區南海路53號",
    "capacity": 12,
    "longitude": 121.5094,
    "latitude": 25.0318
  },
  {
    "name": "臺北市客家文化主題公園",
    "address": "臺北市中正區汀州路三段2號",
    "capacity": 6,
    "longitude": 121.5253,
    "latitude": 25.0202
  },
  {
    "name": "臺北市青少年發展處",
    "address": "臺北市中正區仁愛路一段17號",
    "capacity": 5,
    "longitude": 121.5222,
    "latitude": 25.0389
  },
  {
    "name": "臺北市中山堂",
    "address": "臺北市中正區延平南路98號",
    "capacity": 1,
    "longitude": 121.5096,
    "latitude": 25.0431
  },
  {
    "name": "郵政博物館",
    "address": "臺北市中正區重慶南路二段45號",
    "capacity": 6,
    "longitude": 121.5147,
    "latitude": 25.0316
  },
  {
    "name": "國軍歷史文物館",
    "address": "臺北市中正區貴陽街一段243號",
    "capacity": 1,
    "longitude": 121.5082,
    "latitude": 25.0393
  },
  {
    "name": "國立臺灣博物館",
    "address": "臺北市中正區襄陽路2號",
    "capacity": 3,
    "longitude": 121.515,
    "latitude": 25.0427
  },
  {
    "name": "國立中正紀念堂",
    "address": "臺北市中正區中山南路21號",
    "capacity": 13,
    "longitude": 121.5217,
    "latitude": 25.0346
  },
  {
    "name": "臺北市立動物園",
    "address": "臺北市文山區新光路二段30號",
    "capacity": 17,
    "longitude": 121.581,
    "latitude": 24.9983
  },
  {
    "name": "捷運北投會館",
    "address": "臺北市北投區大業路527巷88號",
    "capacity": 37,
    "longitude": 121.4838,
    "latitude": 25.1345
  },
  {
    "name": "北投復興公園",
    "address": "臺北市北投區中和街200號",
    "capacity": 1,
    "longitude": 121.5023,
    "latitude": 25.1389
  },
  {
    "name": "臺北體育館",
    "address": "臺北市松山區南京東路4段10號",
    "capacity": 10,
    "longitude": 121.552,
    "latitude": 25.0513
  },
  {
    "name": "臺北田徑場",
    "address": "臺北市松山區敦化北路3號",
    "capacity": 10,
    "longitude": 121.5514,
    "latitude": 25.0495
  },
  {
    "name": "臺北市藝文推廣處",
    "address": "臺北市松山區八德路三段25號",
    "capacity": 16,
    "longitude": 121.5522,
    "latitude": 25.0483
  },
  {
    "name": "臺北小巨蛋",
    "address": "臺北市南京東路4段2號",
    "capacity": 11,
    "longitude": 121.5498,
    "latitude": 25.0511
  },
  {
    "name": "國立國父紀念館",
    "address": "臺北市信義區仁愛路四段505號",
    "capacity": 11,
    "longitude": 121.5602,
    "latitude": 25.04
  },
  {
    "name": "南港展覽館",
    "address": "臺北市南港區經貿二路1號",
    "capacity": 26,
    "longitude": 121.6181,
    "latitude": 25.0566
  },
  {
    "name": "臺北市立文獻館",
    "address": "臺北市萬華區中華路1段174-1號",
    "capacity": 2,
    "longitude": 121.5068,
    "latitude": 25.0403
  }
]